yy;id;regione;SiteId;cluster;SiteID;SiteName;SiteCode;Latitude;Longitude;Elevation
2013;aeronautica_6771;aeronautica;6771;6;6771;CAPO MELE;161530;43.95;8.167;221
2013;aeronautica_6795;aeronautica;6795;6;6795;CIVITAVECCHIA;162140;42.033;11.833;4
2013;aeronautica_6812;aeronautica;6812;6;6812;TERMOLI;162320;42;15;44
2013;aeronautica_6841;aeronautica;6841;6;6841;PONZA;162800;40.917;12.95;185
2013;aeronautica_6847;aeronautica;6847;6;6847;CAPRI;162940;40.55;14.2;161
2013;aeronautica_6850;aeronautica;6850;6;6850;CAPO PALINURO;163100;40.017;15.283;185
2013;aeronautica_6856;aeronautica;6856;6;6856;BRINDISI;163200;40.65;17.95;10
2013;aeronautica_6857;aeronautica;6857;6;6857;GROTTAGLIE;163240;40.517;17.4;69
2013;aeronautica_6867;aeronautica;6867;6;6867;CROTONE;163500;39;17.067;161
2013;aeronautica_6869;aeronautica;6869;6;6869;S. MARIA DI LEUCA;163600;39.817;18.35;112
2013;aeronautica_6874;aeronautica;6874;6;6874;USTICA;164000;38.7;13.183;251
2013;aeronautica_6876;aeronautica;6876;6;6876;PALERMO/PUNTA RAISI;164050;38.183;13.1;21
2013;aeronautica_6881;aeronautica;6881;6;6881;MESSINA;164200;38.2;15.55;51
2013;aeronautica_6882;aeronautica;6882;6;6882;REGGIO CALABRIA;164220;38.067;15.65;21
2013;aeronautica_6883;aeronautica;6883;6;6883;TRAPANI/BIRGI;164290;37.917;12.5;14
2013;aeronautica_6889;aeronautica;6889;6;6889;GELA;164530;37.083;14.217;65
2013;aeronautica_6897;aeronautica;6897;6;6897;PANTELLERIA;164700;36.817;11.967;170
2013;aeronautica_6901;aeronautica;6901;6;6901;COZZO SPADARO;164800;36.683;15.133;51
2013;aeronautica_6902;aeronautica;6902;6;6902;LAMPEDUSA;164900;35.5;12.6;20
2013;calabria_107;calabria;107;6;107;Crotone - Papanice;1675;39.0725;17.02777778;118
2013;calabria_108;calabria;108;6;108;Crotone;1680;39.08694444;17.13111111;1
2013;calabria_111;calabria;111;6;111;Crotone - Salica;1695;39.01222222;17.12611111;145
2013;calabria_112;calabria;112;6;112;Isola di Capo Rizzuto - Campolongo;1700;38.94305556;17.0088;151
2013;calabria_121;calabria;121;6;121;San Mauro Marchesato;1740;39.10444444;16.92888889;212
2013;calabria_140;calabria;140;6;140;Catanzaro;1850;38.91083333;16.58583333;315
2013;calabria_177;calabria;177;6;177;Monasterace - Punta Stilo;2040;38.45361111;16.55222222;64
2013;calabria_196;calabria;196;6;196;Gioiosa Ionica;2160;38.30111111;16.32972222;18
2013;calabria_202;calabria;202;6;202;Antonimina;2200;38.25972222;16.18055556;126
2013;calabria_208;calabria;208;6;208;Plati';2230;38.22222222;16.04444444;329
2013;calabria_213;calabria;213;6;213;Sant'Agata del Bianco;2270;38.10075;16.08533333;310
2013;calabria_215;calabria;215;6;215;Staiti;2290;37.99986111;16.0355;369
2013;calabria_217;calabria;217;6;217;Capo Spartivento;2310;37.92727778;16.05613889;61
2013;calabria_233;calabria;233;6;233;Reggio Calabria;2450;38.10786111;15.65094444;72
2013;calabria_246;calabria;246;6;246;Scilla;2510;38.25166667;15.71972222;60
2013;calabria_284;calabria;284;6;284;Feroleto della Chiesa;2690;38.46805556;16.06833333;180
2013;calabria_345;calabria;345;6;345;Paola;3060;39.36727778;16.04208333;282
2013;calabria_348;calabria;348;6;348;Cetraro Superiore;3090;39.535055560000004;15.96408333;417
2013;calabria_71;calabria;71;6;71;Ciro' Marina - Punta Alice;1455;39.38416667;17.12611111;8
2013;campania_76;campania;76;6;76;S.mauro;NA;40.76388889;14.63222222;40.6466827392578
2013;lazio_276;lazio;276;6;276;Civitavecchia;199700;42.0967;11.7853;7
2013;liguria_5870;liguria;5870;6;5870;Imperia;00170;43.8789;8.01694;60
2013;liguria_5926;liguria;5926;6;5926;Sanremo;00101;43.822694;7.78625;45
2013;puglia_104;puglia;104;6;104;OSTUNI;23;40.73389;17.56694;115
2013;puglia_105;puglia;105;6;105;OTRANTO;9;40.15028;18.48417;27
2013;puglia_11;puglia;11;6;11;BARI_(FACOLTA_DINGEGNERIA);466;41.10639;16.87778;23
2013;puglia_111;puglia;111;6;111;POLIGNANO_A_MARE;34;40.98361;17.21667;50
2013;puglia_12;puglia;12;6;12;BARI_(OSSERVATORIO);467;41.11722;16.87167;34
2013;puglia_13;puglia;13;6;13;BARI_(UFFICIO_IDROGRAFICO);402;41.11972;16.88194;17
2013;puglia_130;puglia;130;6;130;SANTA_MARIA_DI_LEUCA;450;39.78417;18.35;26
2013;puglia_138;puglia;138;6;138;TARANTO;57;40.46417;17.25028;27
2013;puglia_139;puglia;139;6;139;TAVIANO;14;39.9675;18.08361;65
2013;puglia_14;puglia;14;6;14;BARLETTA;29;41.30056;16.20028;30
2013;puglia_147;puglia;147;6;147;VIESTE;459;41.8675;16.16694;33
2013;puglia_22;puglia;22;6;22;BRINDISI;6;40.63389;17.91722;22
2013;puglia_50;puglia;50;6;50;FASANO;24;40.83361;17.35028;118
2013;puglia_56;puglia;56;6;56;GALLIPOLI;420;40.05444;17.99444;31
2013;puglia_69;puglia;69;6;69;LIZZANO;52;40.38389;17.43417;71
2013;puglia_77;puglia;77;6;77;MASSAFRA;41;40.58361;17.10056;113
2013;puglia_88;puglia;88;6;88;MINERVINO_DI_LECCE;492;40.08361;18.41667;104
2013;sicilia_11812;sicilia;11812;6;11812;Marsala;191120;37.810158;12.456187;5
2013;sicilia_11813;sicilia;11813;6;11813;Mazara del Vallo;191140;37.656656;12.599055;8
2013;sicilia_11825;sicilia;11825;6;11825;Sciacca;191400;37.511873;13.126871;110
2013;sicilia_11858;sicilia;11858;6;11858;Licata;192200;37.098433;13.932402;48
2013;sicilia_11888;sicilia;11888;6;11888;Acireale;193150;37.620461;15.165228;184
2013;sicilia_11898;sicilia;11898;6;11898;Messina Istituto Geofisico;193380;38.200472;15.554106;31
2013;sicilia_11942;sicilia;11942;6;11942;Palermo Osservatorio Astronomico;19880;38.109161;13.350685;27
2013;sicilia_6162;sicilia;6162;6;6162;Palermo;00276;38.129171;13.327125;44
